[
  {
    "id": 1,
    "name": "Big Company",
    "location": {
      "id": 1,
      "name": "USA place",
      "street": "The street",
      "suite": "656",
      "city": "Big city",
      "zipcode": "338487",
      "timeZone": "CST",
      "locationType": "BUSINESS",
      "lat": 23.23,
      "lon": 23.23,
      "state": "Big state"
    }
  },
  {
    "id": 2,
    "name": "small Company",
    "location": {
      "id": 2,
      "name": "USA place",
      "street": "The street",
      "suite": "656",
      "city": "Big city",
      "zipcode": "338487",
      "timeZone": "CST",
      "locationType": "BUSINESS",
      "lat": 23.23,
      "lon": 23.23,
      "state": "Big state"
    }
  },
  {
    "id": 3,
    "name": "The Book Store",
    "location": {
      "id": 3,
      "name": "USA place",
      "street": "The street",
      "suite": "656",
      "city": "Big city",
      "zipcode": "338487",
      "timeZone": "CST",
      "locationType": "BUSINESS",
      "lat": 23.23,
      "lon": 23.23,
      "state": "Big state"
    }
  }
]