[
  {
    "id": 69,
    "creationDate": [
      2022,
      11,
      11
    ],
    "deliveryDate": [
      2022,
      11,
      11
    ],
    "contact": {
      "id": 69,
      "name": "The guy from the gas station",
      "company": {
        "id": 69,
        "name": "Big Company",
        "location": {
          "id": 69,
          "name": "USA place",
          "street": "The street",
          "suite": "656",
          "city": "Big city",
          "zipcode": "338487",
          "timeZone": "CST",
          "locationType": "BUSINESS",
          "lat": 23.23,
          "lon": 23.23,
          "state": "Big state"
        }
      }
    }
  },
  {
    "id": 89,
    "creationDate": [
      2022,
      11,
      11
    ],
    "deliveryDate": [
      2022,
      11,
      11
    ],
    "contact": {
      "id": 89,
      "name": "Mark Anthony",
      "company": {
        "id": 89,
        "name": "Big Company",
        "location": {
          "id": 89,
          "name": "USA place",
          "street": "The street",
          "suite": "656",
          "city": "Big city",
          "zipcode": "338487",
          "timeZone": "CST",
          "locationType": "BUSINESS",
          "lat": 23.23,
          "lon": 23.23,
          "state": "Big state"
        }
      }
    }
  },
  {
    "id": 99,
    "creationDate": [
      2022,
      11,
      11
    ],
    "deliveryDate": [
      2022,
      11,
      11
    ],
    "contact": {
      "id": 99,
      "name": "Jarule",
      "company": {
        "id": 99,
        "name": "Big Company",
        "location": {
          "id": 99,
          "name": "USA place",
          "street": "The street",
          "suite": "656",
          "city": "Big city",
          "zipcode": "338487",
          "timeZone": "CST",
          "locationType": "BUSINESS",
          "lat": 23.23,
          "lon": 23.23,
          "state": "Big state"
        }
      }
    }
  }
]